[
    {
        "name": "The University of Sydney (USYD)",
        "latitude": -33.888270478963335,
        "longitude": 151.18676479751826,
        "country": "Australia",
        "website": "https://www.sydney.edu.au",
        "number": "+61 2 8627 1444",
        "email": "engage.team@sydney.edu.au"
    },
    {
        "name": "The University of Melbourne (unimelb)",
        "latitude": -37.79777110904262,
        "longitude": 144.96105244852558,
        "country": "Australia",
        "website": "https://www.unimelb.edu.au",
        "number": "+61 3 9035 5511",
        "email": "undergrad-admissions@unimelb.edu.au"
    },
    {
        "name": "The Australian National University (ANU)",
        "latitude": -35.2810781078399,
        "longitude": 149.11833452640005,
        "country": "Australia",
        "website": "https://www.anu.edu.au",
        "number": "+61 2 6125 5111",
        "email": "student@anu.edu.au"
    },
    {
        "name": "The University of New South Wales (UNSW)",
        "latitude": -33.91625717641854,
        "longitude": 151.23182945426947,
        "country": "Australia",
        "website": "https://www.unsw.edu.au",
        "number": "+61 2 9385 1844",
        "email": "unsw@prospectivestudent.info"
    },
    {
        "name": "Monash University",
        "latitude": -37.910182,
        "longitude": 145.133765,
        "country": "Australia",
        "website": "https://www.monash.edu",
        "number": "+61 3 9903 4788",
        "email": "scenquiries@monash.edu"
    },
    {
        "name": "The University of Queensland (UQ)",
        "latitude": -27.495371014021995,
        "longitude": 153.01445605695503,
        "country": "Australia",
        "website": "https://www.uq.edu.au",
        "number": "+ 61 7 3365 1111",
        "email": "ask@uq.edu.au"
    },
    {
        "name": "The University of Western Australia (UWA)",
        "latitude": -31.978742261956942,
        "longitude": 115.81801845335922,
        "country": "Australia",
        "website": "https://www.uwa.edu.au",
        "number": "+61 8 6488 1000",
        "email": "general-enquiries@uwa.edu.au"
    },
    {
        "name": "The University of Adelaide - North Terrace Campus",
        "latitude": -34.919634,
        "longitude": 138.604707,
        "country": "Australia",
        "website": "https://www.adelaide.edu.au",
        "number": "+61 8 8313 5208",
        "email": "start@adelaide.edu.au"
    },
    {
        "name": "University of Technology Sydney",
        "latitude": -33.883345,
        "longitude": 151.200854,
        "country": "Australia",
        "website": "https://www.uts.edu.au",
        "number": "+61 2 8806 0230",
        "email": "international@uts.edu.au"
    },
    {
        "name": "RMIT University",
        "latitude": -37.808606,
        "longitude": 144.964750,
        "country": "Australia",
        "website": "https://www.rmit.edu.au/",
        "number": "+61 3 9925 2000",
        "email": "study@rmit.com"
    },
    {
        "name": "Macquarie University",
        "latitude": -33.774242,
        "longitude": 151.112491,
        "country": "Australia",
        "website": "https://www.mq.edu.au",
        "number": "+61 2 9850 7111",
        "email": "sesinfo@mq.edu.au"
    },
    {
        "name": "University of Wollongong (UOW)",
        "latitude": -34.405152,
        "longitude": 150.875972,
        "country": "Australia",
        "website": "https://www.uow.edu.au",
        "number": "+61 1300 367 869",
        "email": ""
    },
    {
        "name": "Curtin University",
        "latitude": -32.006357,
        "longitude": 115.892386,
        "country": "Australia",
        "website": "https://www.curtin.edu.au",
        "number": "+61 8 9266 9266",
        "email": ""
    },
    {
        "name": "The University of Newcastle",
        "latitude": -32.892191,
        "longitude": 151.705490,
        "country": "Australia",
        "website": "https://www.newcastle.edu.au/campus-life/newcastle/callaghan",
        "number": "+61 2 4921 5000",
        "email": "postgrad@newcastle.edu.au"
    },
    {
        "name": "Deakin University",
        "latitude": -37.847883,
        "longitude": 145.114870,
        "country": "Australia",
        "website": "https://www.deakin.edu.au/about-deakin/locations/campuses/melbourne-burwood",
        "number": "+61 3 9244 6333",
        "email": ""
    },
    {
        "name": "Queensland University of Technology (QUT) - Gardens Point Campus",
        "latitude": -27.477323,
        "longitude": 153.028297,
        "country": "Australia",
        "website": "https://www.qut.edu.au",
        "number": "+61 7 3138 2000",
        "email": ""
    },
    {
        "name": "La Trobe University",
        "latitude": -37.720628,
        "longitude": 145.047175,
        "country": "Australia",
        "website": "https://www.latrobe.edu.au/melbourne",
        "number": "+61 1300 528 762",
        "email": "grs@latrobe.edu.au"
    },
    {
        "name": "Griffith University",
        "latitude": -27.481694,
        "longitude": 153.024235,
        "country": "Australia",
        "website": "https://www.griffith.edu.au/about-griffith/campuses-facilities/brisbane-city-south-bank",
        "number": "+61 7 3735 7111",
        "email": ""
    },
    
    
    
    
    {
        "name": "KU Leuven",
        "latitude": 50.877905,
        "longitude": 4.700499,
        "country": "Belgium",
        "website": "https://www.kuleuven.be/kuleuven/#",
        "number": "+32 16 32 43 44",
        "email": ""
    },
    {
        "name": "University of Ghent",
        "latitude": 51.046722,
        "longitude": 3.727273,
        "country": "Belgium",
        "website": "https://www.ugent.be",
        "number": "+32 9 331 01 01",
        "email": ""
    },
    {
        "name": "Université Libre de Bruxelles - Plaine",
        "latitude": 50.818885,
        "longitude": 4.402860,
        "country": "Belgium",
        "website": "https://www.ulb.be/fr/plans-et-acces/plaine",
        "number": "+32 2 650 21 11",
        "email": ""
    },
    {
        "name": "Universite libre de Bruxelles (ULB)",
        "latitude": 50.811722,
        "longitude": 4.381084,
        "country": "Belgium",
        "website": "https://www.ulb.be",
        "number": "+32 2 650 21 11",
        "email": ""
    },
    {
        "name": "University of Antwerp - Groenenborger Campus",
        "latitude": 51.177928,
        "longitude": 4.414269,
        "country": "Belgium",
        "website": "https://www.uantwerpen.be/en/about-uantwerp/campuses/campus-groenenborger/",
        "number": "+32 3 265 32 11",
        "email": ""
    },




    {
        "name": "University of Toronto - St. George Campus",
        "latitude": 43.663587,
        "longitude": -79.397893,
        "country": "Canada",
        "website": "https://www.utoronto.ca",
        "number": "+1 (416) 978-2011",
        "email": ""
    },
    {
        "name": "University of Toronto - Mississauga Campus (UTM)",
        "latitude": 43.548182,
        "longitude": -79.662012,
        "country": "Canada",
        "website": "https://www.utoronto.ca",
        "number": "+1 (905) 569-4455",
        "email": ""
    },
    {
        "name": "McGill University",
        "latitude": 45.505249,
        "longitude": -73.577650,
        "country": "Canada",
        "website": "https://www.mcgill.ca",
        "number": "+1 (514) 398-4455",
        "email": ""
    },
    {
        "name": "The University of British Columbia",
        "latitude": 49.261381,
        "longitude": -123.253807,
        "country": "Canada",
        "website": "https://www.ubc.ca/our-campuses/vancouver/",
        "number": "+1 (604) 822-2211",
        "email": ""
    },




    {
        "name": "Peking University (北京大学)",
        "latitude": 39.988662,
        "longitude": 116.304456,
        "country": "China",
        "website": "https://www.pku.edu.cn",
        "number": "+86 (10) 6275 1561",
        "email": "its@pku.edu.cn"
    },
    {
        "name": "Tsinghua University (清华大学)",
        "latitude": 40.000421,
        "longitude": 116.326536,
        "country": "China",
        "website": "https://www.tsinghua.edu.cn",
        "number": "+86 (10) 6279 3001",
        "email": "webmaster@tsinghua.edu.cn"
    },
    {
        "name": "Fudan University (复旦大学)",
        "latitude": 31.297823,
        "longitude": 121.499616,
        "country": "China",
        "website": "https://www.fudan.edu.cn",
        "number": "+86 (21) 6564 2222",
        "email": ""
    },
    {
        "name": "Shanghai Jiao Tong University (上海交通大学)",
        "latitude": 31.201670,
        "longitude": 121.428366,
        "country": "China",
        "website": "https://www.sjtu.edu.cn",
        "number": "+86 (21) 6293 2060",
        "email": ""
    },
    {
        "name": "Zhejiang University (浙江大学)",
        "latitude": 30.306262,
        "longitude": 120.083849,
        "country": "China",
        "website": "https://www.zju.edu.cn",
        "number": "+86 (571) 8795 1111",
        "email": "admissionmaster@zju.edu.cn"
    },
    {
        "name": "Chengdu Jinjiang Jiaxiang Foreign Language Senior High School (成都锦江嘉祥外国语学校)",
        "latitude": 30.609170,
        "longitude": 104.103634,
        "country": "China",
        "website": "https://jjzx.jxfls.com",
        "number": "+86 (28) 8591 8087",
        "email": "jxfls2020@126.com"
    },
    {
        "name": "University of Science and Technology of China",
        "latitude": 31.8220,
        "longitude": 117.2806,
        "country": "China",
        "website": "https://en.ustc.edu.cn",
        "number": "+86-551-6360946",
        "email": "aga@ustc.edu.cn"
    },
    {
        "name": "Nanjing University",
        "latitude": 32.0568,
        "longitude": 118.7790,
        "country": "China",
        "website": "https://www.nju.edu.cn/en/",
        "number": "+86 25 8359 3186",
        "email": ""
    },
    {
        "name": "Tongji University",
        "latitude": 31.174,
        "longitude": 121.308,
        "country": "China",
        "website": "https://en.tongji.edu.cn/p/",
        "number": "0086-21-65983611",
        "email": ""
    },
    {
        "name": "Wuhan University",
        "latitude": 30.5325,
        "longitude": 114.3556,
        "country": "China",
        "website": "https://en.whu.edu.cn/",
        "number": "+86 27 6875 2118",
        "email": "fao@whu.edu.cn"
    },
    {
        "name": "Harbin Institute of Technology",
        "latitude": 45.7432,
        "longitude": 126.6324,
        "country": "China",
        "website": "https://en.hit.edu.cn/",
        "number": "+86 451 8641 6602",
        "email": "studyathit@hit.edu.cn"
    },
    {
        "name": "Tianjin University",
        "latitude": 39.1081,
        "longitude": 117.1647,
        "country": "China",
        "website": "https://www.tju.edu.cn/english/",
        "number": "+86 22 2740 6691",
        "email": "undergraduate@tju.edu.cn"
    },
    {
        "name": "Beijing Normal University",
        "latitude": 39.95545,
        "longitude": 116.35739,
        "country": "China",
        "website": "https://english.bnu.edu.cn/",
        "number": "+86 10 58806183",
        "email": "xwzx@bnu.edu.cn"
    },
    {
        "name": "Southern University of Science and Technology (SUSTech)",
        "latitude": 22.60337,
        "longitude": 113.99752,
        "country": "China",
        "website": "https://www.sustech.edu.cn/en/",
        "number": "+86 755 8801 6000",
        "email": "global@sustech.edu.cn"
    },
    {
        "name": "Xi'an Jiaotong University",
        "latitude": 34.24722,
        "longitude": 108.97917,
        "country": "China",
        "website": "https://en.xjtu.edu.cn/",
        "number": "+86 29 82668231",
        "email": "office@mail.xjtu.edu.cn"
    },
    {
        "name": "Huazhong University of Science and Technology (HUST)",
        "latitude": 30.51000,
        "longitude": 114.41000,
        "country": "China",
        "website": "http://english.hust.edu.cn/",
        "number": "+86 27 8754 2157",
        "email": "apply@hust.edu.cn"
    },
    {
        "name": "Beijing Institute of Technology",
        "latitude": 39.9547,
        "longitude": 116.305,
        "country": "China",
        "website": "https://www.bit.edu.cn/",
        "number": "+86 10 6891 1438",
        "email": "undergraduate@bit.edu.cn"
    },
    {
        "name": "Shandong University",
        "latitude": 36.67361,
        "longitude": 117.05389,
        "country": "China",
        "website": "https://www.en.sdu.edu.cn/",
        "number": "+86-531-88364854",
        "email": "admission@email.sdu.edu.cn"
    },
    {
        "name": "Sun Yat-sen University",
        "latitude": 23.1002,
        "longitude": 113.2937,
        "country": "China",
        "website": "https://www.sysu.edu.cn/sysuen/",
        "number": "+86 20 8411 0819",
        "email": "admissions@mail.sysu.edu.cn"
    },
    {
        "name": "Sichuan University",
        "latitude": 30.63301,
        "longitude": 104.08772,
        "country": "China",
        "website": "https://en.scu.edu.cn/",
        "number": "+86 28 85407199",
        "email": "international@scu.edu.cn"
    },
    {
        "name": "Xiamen University",
        "latitude": 24.479834,
        "longitude": 118.089424,
        "country": "China",
        "website": "https://en.xmu.edu.cn/",
        "number": "+86 592 2184792",
        "email": "admissions@xmu.edu.cn"
    },
    {
        "name": "Nankai University",
        "latitude": 39.10111,
        "longitude": 117.16472,
        "country": "China",
        "website": "https://en.nankai.edu.cn/",
        "number": "+86 22 23503481",
        "email": "ennews@nankai.edu.cn"
    },




    {
        "name": "Université PSL",
        "latitude": 48.870088,
        "longitude": 2.273621,
        "country": "France",
        "website": "https://dauphine.psl.eu",
        "number": "+33 1 44 05 44 05",
        "email": ""
    },
    {
        "name": "Institut Polytechnique de Paris",
        "latitude": 48.713522,
        "longitude": 2.210462,
        "country": "France",
        "website": "https://www.polytechnique.edu",
        "number": "+33 1 69 33 33 33",
        "email": ""
    },
    {
        "name": "Sorbonne University - Campus Malesherbes",
        "latitude": 48.883560,
        "longitude": 2.309672,
        "country": "France",
        "website": "https://lettres.sorbonne-universite.fr/sorbonne-universite-campus-malesherbes",
        "number": "",
        "email": ""
    },
    {
        "name": "Pantheon - Sorbonne University",
        "latitude": 48.835974,
        "longitude": 2.346401,
        "country": "France",
        "website": "https://www.pantheonsorbonne.fr",
        "number": "+33 1 44 07 80 00",
        "email": ""
    },
    {
        "name": "Université Paris-Saclay",
        "latitude": 48.709543,
        "longitude": 2.170076,
        "country": "France",
        "website": "https://www.universite-paris-saclay.fr",
        "number": "+33 1 69 15 67 50",
        "email": ""
    },
    {
        "name": "École Normale Supérieure de Lyon (ENS de Lyon)",
        "latitude": 45.729734,
        "longitude": 4.826875,
        "country": "France",
        "website": "http://www.ens-lyon.fr/",
        "number": "+33 (0)4 37 37 60 00",
        "email": "communication@ens-lyon.fr"
    },
    {
        "name": "École des Ponts ParisTech",
        "latitude": 48.84111,
        "longitude": 2.58778,
        "country": "France",
        "website": "https://www.ecoledesponts.fr/en",
        "number": "+33 (0)1 64 15 30 00",
        "email": "infosgce@enpc.fr"
    },
    {
      "name": "Université Paris 1 Panthéon-Sorbonne",
      "latitude": 48.8474,
      "longitude": 2.34546,
      "country": "France",
      "website": "https://www.pantheonsorbonne.fr/",
      "number": "+33 1 44 07 80 00",
      "email": "inscriptions-administratives@univ-paris1.fr"
    },
    {
      "name": "Université Paris Cité",
      "latitude": 48.85147,
      "longitude": 2.34092,
      "country": "France",
      "website": "https://u-paris.fr/en/",
      "number": "+33 1 57 27 65 67",
      "email": ""
    },




    {
        "name": "Technical University of Munich",
        "latitude": 48.148866,
        "longitude": 11.568088,
        "country": "Germany",
        "website": "https://www.tum.de",
        "number": "+49 89 28901",
        "email": ""
    },
    {
        "name": "Ludwig-Maximilians-Universität München",
        "latitude": 48.150880,
        "longitude": 11.580040,
        "country": "Germany",
        "website": "https://www.lmu.de/de/index.html",
        "number": "+49 89 21800",
        "email": ""
    },
    {
        "name": "Ruprecht-Karls-Universität Heidelberg",
        "latitude": 49.410278,
        "longitude": 8.706389,
        "country": "Germany",
        "website": "https://www.uni-heidelberg.de/en",
        "number": "+49 6221 54-0",
        "email": "studium@uni-heidelberg.de"
    },
    {
        "name": "Freie Universität Berlin",
        "latitude": 52.45306,
        "longitude": 13.29056,
        "country": "Germany",
        "website": "https://www.fu-berlin.de/en/",
        "number": "+49 30 838 70000",
        "email": "info-service@fu-berlin.de"
    },
    {
        "name": "RWTH Aachen University",
        "latitude": 50.77778,
        "longitude": 6.07806,
        "country": "Germany",
        "website": "https://www.rwth-aachen.de/",
        "number": "+49 241 80 1",
        "email": "impressum@rwth-aachen.de"
    },
    {
        "name": "Karlsruhe Institute of Technology (KIT)",
        "latitude": 49.00944,
        "longitude": 8.41167,
        "country": "Germany",
        "website": "https://www.kit.edu/english/",
        "number": "+49 721 608-0",
        "email": "info@kit.edu"
    },
    {
        "name": "Humboldt-Universität zu Berlin",
        "latitude": 52.51806,
        "longitude": 13.39333,
        "country": "Germany",
        "website": "https://www.hu-berlin.de/en",
        "number": "+49 30 2093-70333",
        "email": "info@hu-berlin.de"
    },
    {
        "name": "Technische Universität Berlin (TU Berlin)",
        "latitude": 52.512230,
        "longitude": 13.327135,
        "country": "Germany",
        "website": "https://www.tu.berlin/en/",
        "number": "+49 30 314-0",
        "email": "info@tu-berlin.de"
    },
    {
        "name": "Universität Hamburg",
        "latitude": 53.5668,
        "longitude": 9.9837,
        "country": "Germany",
        "website": "https://www.uni-hamburg.de/en/",
        "number": "+49 40 42838-0",
        "email": "info@uni-hamburg.de"
    },
    {
      "name": "Albert-Ludwigs-Universität Freiburg",
      "latitude": 47.993511,
      "longitude": 7.845839,
      "country": "Germany",
      "website": "https://www.uni-freiburg.de/",
      "number": "+49 761 203-0",
      "email": "info@uni-freiburg.de"
    },
    {
      "name": "Eberhard Karls Universität Tübingen",
      "latitude": 48.525,
      "longitude": 9.055,
      "country": "Germany",
      "website": "https://www.uni-tuebingen.de/en/",
      "number": "+49 7071 29-0",
      "email": "info@uni-tuebingen.de"
    },
    {
      "name": "Friedrich-Alexander-Universität Erlangen-Nürnberg (FAU)",
      "latitude": 49.59788,
      "longitude": 11.004551,
      "country": "Germany",
      "website": "https://www.fau.eu/",
      "number": "+49 9131 85-70229",
      "email": "presse@fau.de"
    },




    {
        "name": "The University of Hong Kong (HKU)",
        "latitude": 22.284009,
        "longitude": 114.137831,
        "country": "HongKong",
        "website": "https://www.hku.hk",
        "number": "+852 2859 2111",
        "email": "admissions@hku.hk"
    },
    {
        "name": "The Chinese University of Hong Kong (CUHK)",
        "latitude": 22.420100,
        "longitude": 114.2071601,
        "country": "HongKong",
        "website": "https://www.cuhk.edu.hk/english/index.html",
        "number": "+852 3943 7000",
        "email": "ugadm@cuhk.edu.hk"
    },
    {
        "name": "The Hong Kong University of Science and Technology",
        "latitude": 22.337493,
        "longitude": 114.263671,
        "country": "HongKong",
        "website": "https://hkust.edu.hk",
        "number": "+852 2623 1118",
        "email": ""
    },
    {
        "name": "The Hong Kong Polytechnic University",
        "latitude": 22.303570,
        "longitude": 114.184830,
        "country": "HongKong",
        "website": "https://www.speed-polyu.edu.hk",
        "number": "+852 3746 0360",
        "email": ""
    },
    {
        "name": "City University of Hong Kong",
        "latitude": 22.337611,
        "longitude": 114.171441,
        "country": "HongKong",
        "website": "+852 3442 7654",
        "number": "+852 3442 7654",
        "email": ""
    },
    {
      "name": "Hong Kong Baptist University",
      "latitude": 22.33792,
      "longitude": 114.18277,
      "country": "HongKong",
      "website": "https://www.hkbu.edu.hk/",
      "number": "+852 3411 7400",
      "email": "ar@hkbu.edu.hk"
    },
    {
      "name": "Lingnan University",
      "latitude": 22.4100,
      "longitude": 113.9830,
      "country": "HongKong",
      "website": "https://www.ln.edu.hk/",
      "number": "+852 2616 8888",
      "email": "ar@ln.edu.hk"
    },




    {
        "name": "The University of Tokyo",
        "latitude": 35.713467,
        "longitude": 139.762558,
        "country": "Japan",
        "website": "https://www.u-tokyo.ac.jp/ja/",
        "number": "+81 3 3812 2111",
        "email": ""
    },
    {
        "name": "Kyoto University",
        "latitude": 35.026729,
        "longitude": 135.780921,
        "country": "Japan",
        "website": "https://www.kyoto-u.ac.jp/ja",
        "number": "+81 75 753 7531",
        "email": ""
    },
    {
      "name": "Tokyo Institute of Technology",
      "latitude": 35.605,
      "longitude": 139.682,
      "country": "Japan",
      "website": "https://www.titech.ac.jp/english/",
      "number": "+81 3-3726-1111",
      "email": "pr@jim.titech.ac.jp"
    },
    {
      "name": "Osaka University",
      "latitude": 34.8182,
      "longitude": 135.5227,
      "country": "Japan",
      "website": "https://www.osaka-u.ac.jp/en",
      "number": "+81 6-6877-5111",
      "email": "admission@office.osaka-u.ac.jp"
    },
    {
      "name": "Tohoku University",
      "latitude": 38.255,
      "longitude": 140.873,
      "country": "Japan",
      "website": "https://www.tohoku.ac.jp/en/",
      "number": "+81 22-795-3242",
      "email": "tohoku-fgl@grp.tohoku.ac.jp"
    },
    {
      "name": "Nagoya University",
      "latitude": 35.15472,
      "longitude": 136.96694,
      "country": "Japan",
      "website": "https://en.nagoya-u.ac.jp/",
      "number": "+81 52-789-5111",
      "email": "nuinfo@t.mail.nagoya-u.ac.jp"
    },
    {
      "name": "Kyushu University",
      "latitude": 33.626659,
      "longitude": 130.425049,
      "country": "Japan",
      "website": "https://www.kyushu-u.ac.jp/en/",
      "number": "+81 92-802-2111",
      "email": "nyu-inquiry@jimu.kyushu-u.ac.jp"
    },
    {
      "name": "Hokkaido University",
      "latitude": 43.0707,
      "longitude": 141.3400,
      "country": "Japan",
      "website": "https://www.global.hokudai.ac.jp/",
      "number": "+81 11-716-2111",
      "email": "international@sci.hokudai.ac.jp"
    },
    {
      "name": "Waseda University",
      "latitude": 35.70863,
      "longitude": 139.71958,
      "country": "Japan",
      "website": "https://www.waseda.jp/top/en/",
      "number": "+81 3-3203-7747",
      "email": "nyusi@list.waseda.jp"
    },
    {
      "name": "Keio University",
      "latitude": 35.649167,
      "longitude": 139.742778,
      "country": "Japan",
      "website": "https://www.keio.ac.jp/en/",
      "number": "+81 3-5427-1517",
      "email": "admissions@info.keio.ac.jp"
    },
    
    
    
    
    {
        "name": "Universiti Malaya (UM)",
        "latitude": 3.122797,
        "longitude": 101.653818,
        "country": "Malaysia",
        "website": "https://www.um.edu.my",
        "number": "+60 3 7967 3502",
        "email": "apm@um.edu.my"
    },
    {
      "name": "Universiti Kebangsaan Malaysia (UKM)",
      "latitude": 2.929997,
      "longitude": 101.777423,
      "country": "Malaysia",
      "website": "https://www.ukm.my/",
      "number": "+60 3-8921 5555",
      "email": "pkk@ukm.edu.my"
    },
    {
      "name": "Universiti Sains Malaysia (USM)",
      "latitude": 5.3542,
      "longitude": 100.3008,
      "country": "Malaysia",
      "website": "https://www.usm.my/",
      "number": "+60 4-653 3888",
      "email": "mprc@usm.my"
    },
    {
      "name": "Universiti Putra Malaysia (UPM)",
      "latitude": 2.9926,
      "longitude": 101.7072,
      "country": "Malaysia",
      "website": "https://www.upm.edu.my/",
      "number": "+60 3-9769 1000",
      "email": "pspk@upm.edu.my"
    },
    {
      "name": "Universiti Teknologi Malaysia (UTM)",
      "latitude": 1.5584,
      "longitude": 103.6386,
      "country": "Malaysia",
      "website": "https://www.utm.my/",
      "number": "+60 7-553 3333",
      "email": "corporate@utm.my"
    },
    {
      "name": "Taylor's University",
      "latitude": 3.0638,
      "longitude": 101.6034,
      "country": "Malaysia",
      "website": "https://university.taylors.edu.my/",
      "number": "+60 3-5629 5000",
      "email": "applications@taylors.edu.my"
    },




    {
        "name": "Delft University of Technology",
        "latitude": 52.002187,
        "longitude": 4.373513,
        "country": "Netherland",
        "website": "https://www.tudelft.nl",
        "number": "+31 15 278 91 11",
        "email": ""
    },
    {
        "name": "Delft University of Technology",
        "latitude": 52.354995,
        "longitude": 4.953700,
        "country": "Netherland",
        "website": "https://www.uva.nl/home",
        "number": "+31 20 525 91 11",
        "email": ""
    },




    {
        "name": "The University of Auckland",
        "latitude": -36.85192748714159,
        "longitude": 174.76894819761844,
        "country": "New Zealand",
        "website": "https://www.auckland.ac.nz",
        "number": "+64 9 373 7999",
        "email": "Int-questions@auckland.ac.nz"
    },




    {
        "name": "National University of Singapore (NUS)",
        "latitude": 1.302293,
        "longitude": 103.772789,
        "country": "Singapore",
        "website": "https://www.ystmusic.nus.edu.sg",
        "number": "+65 6516 1167",
        "email": "musgeneral@nus.edu.sg"
    },
    {
        "name": "Nanyang Technological University, Singapore (NTU)",
        "latitude": 1.349071,
        "longitude": 103.680170,
        "country": "Singapore",
        "website": "https://www.ntu.edu.sg/nie",
        "number": "+65 6790 3888",
        "email": ""
    },




    {
        "name": "Seoul National University",
        "latitude": 37.464885,
        "longitude": 126.957388,
        "country": "South Korea",
        "website": "https://www.snu.ac.kr",
        "number": "+82 2-880-5114",
        "email": ""
    },
    {
        "name": "Yonsei University",
        "latitude": 37.566406,
        "longitude": 126.938691,
        "country": "South Korea",
        "website": "https://www.yonsei.ac.kr/en_sc/index.jsp",
        "number": "+82 2-2123-2114",
        "email": ""
    },
    {
        "name": "KAIST - Korea Advanced Institute of Science & Technology",
        "latitude": 36.370531,
        "longitude": 127.361148,
        "country": "South Korea",
        "website": "https://www.kaist.ac.kr/kr/",
        "number": "+82 42-350-2114",
        "email": "creative.adm@kaist.ac.kr"
    },
    {
        "name": "Korea University",
        "latitude": 37.589521,
        "longitude": 127.032332,
        "country": "South Korea",
        "website": "https://www.korea.ac.kr/sites/ko/index.do",
        "number": "+82 2-3290-1114",
        "email": ""
    },




    {
        "name": "ETH Zürich - Campus Zentrum",
        "latitude": 47.376367,
        "longitude": 8.547538,
        "country": "Switzerland",
        "website": "https://ethz.ch/de/campus/erreichen/zentrum.html",
        "number": "+41 44 632 11 11",
        "email": ""
    },
    {
        "name": "ETH Zürich - Campus Hönggerberg",
        "latitude": 47.408430,
        "longitude": 8.506722,
        "country": "Switzerland",
        "website": "https://ethz.ch/de/campus/erreichen/hoenggerberg.html",
        "number": "+41 44 632 11 11",
        "email": ""
    },
    {
        "name": "EPFL",
        "latitude": 46.520657,
        "longitude": 6.566134,
        "country": "Switzerland",
        "website": "https://www.epfl.ch/en/",
        "number": "+41 21 693 23 95",
        "email": ""
    },




    {
        "name": "Imperial College London",
        "latitude": 51.499106,
        "longitude": -0.177079,
        "country": "United Kingdom",
        "website": "https://www.imperial.ac.uk",
        "number": "+44 20 7589 5111",
        "email": "president@imperial.ac.uk"
    },
    {
        "name": "University of Cambridge",
        "latitude": 52.201670,
        "longitude": 0.109005,
        "country": "United Kingdom",
        "website": "https://www.cam.ac.uk",
        "number": "+44 1223 337733",
        "email": ""
    },
    {
        "name": "University of Oxford",
        "latitude": 51.758746,
        "longitude": -1.255481,
        "country": "United Kingdom",
        "website": "https://www.ox.ac.uk",
        "number": "+44 1865 270000",
        "email": "collaboration@admin.ox.ac.uk"
    },
    {
        "name": "University College London (UCL)",
        "latitude": 51.523093,
        "longitude": -0.128417,
        "country": "United Kingdom",
        "website": "https://www.ucl.ac.uk",
        "number": "+44 20 7679 2000",
        "email": ""
    },
    {
        "name": "The University of Edinburgh",
        "latitude": 55.947551,
        "longitude": -3.186582,
        "country": "United Kingdom",
        "website": "https://www.ed.ac.uk",
        "number": "+44 131 651 4070",
        "email": ""
    },
    {
        "name": "The University of Manchester",
        "latitude": 53.466527,
        "longitude": -2.232735,
        "country": "United Kingdom",
        "website": "https://www.manchester.ac.uk",
        "number": "+44 161 306 6000",
        "email": ""
    },
    {
        "name": "King's College London - Waterloo Campus",
        "latitude": 51.505932,
        "longitude": -0.112005,
        "country": "United Kingdom",
        "website": "https://www.kcl.ac.uk/visit/waterloo-campus",
        "number": "+44 20 7836 5454",
        "email": ""
    },
    {
        "name": "King's College London - Strand Campus",
        "latitude": 51.511483,
        "longitude": -0.115997,
        "country": "United Kingdom",
        "website": "https://www.kcl.ac.uk/visit/strand-campus",
        "number": "+44 (0)20 7836 5454",
        "email": ""
    },
    {
        "name": "The University of Warwick",
        "latitude": 52.379640,
        "longitude": -1.561389,
        "country": "United Kingdom",
        "website": "https://warwick.ac.uk",
        "number": "+44 24 7652 3523",
        "email": ""
    },
    {
        "name": "The London School of Economics and Political Science (LSE)",
        "latitude": 51.514104,
        "longitude": -0.116665,
        "country": "United Kingdom",
        "website": "https://www.lse.ac.uk",
        "number": "+44 20 7405 7686",
        "email": ""
    },
    {
        "name": "University of Bristol",
        "latitude": 51.458367,
        "longitude": -2.601918,
        "country": "United Kingdom",
        "website": "https://www.bristol.ac.uk",
        "number": "+44 117 928 9000",
        "email": ""
    },
    {
        "name": "University of Glasgow",
        "latitude": 55.872315,
        "longitude": -4.289219,
        "country": "United Kingdom",
        "website": "https://www.gla.ac.uk/",
        "number": "+44 141 330 2000",
        "email": "student.recruitment@glasgow.ac.uk"
    },
    {
        "name": "University of Birmingham",
        "latitude": 52.4508,
        "longitude": -1.9305,
        "country": "United Kingdom",
        "website": "https://www.birmingham.ac.uk/",
        "number": "+44 (0)121 414 3344",
        "email": "info@bham.ac.uk"
    },
    {
        "name": "University of Southampton",
        "latitude": 50.9349,
        "longitude": -1.3953,
        "country": "United Kingdom",
        "website": "https://www.southampton.ac.uk/",
        "number": "+44 (0)23 8059 5000",
        "email": "studenthub@soton.ac.uk"
    },
    {
        "name": "University of Leeds",
        "latitude": 53.8067,
        "longitude": -1.5530,
        "country": "United Kingdom",
        "website": "https://www.leeds.ac.uk/",
        "number": "+44 (0)113 243 1751",
        "email": "study@leeds.ac.uk"
    },
    {
        "name": "Durham University",
        "latitude": 54.7666,
        "longitude": -1.5780,
        "country": "United Kingdom",
        "website": "https://www.durham.ac.uk/",
        "number": "+44 (0)191 334 2000",
        "email": "international.internal@durham.ac.uk"
    },
    {
        "name": "University of St Andrews",
        "latitude": 56.3398,
        "longitude": -2.7967,
        "country": "United Kingdom",
        "website": "https://www.st-andrews.ac.uk/",
        "number": "+44 (0)1334 47 6161",
        "email": "admissions@st-andrews.ac.uk"
    },




    {
        "name": "Massachusetts Institute of Technology (MIT)",
        "latitude": 42.359949,
        "longitude": -71.092681,
        "country": "United States",
        "website": "https://web.mit.edu",
        "number": "+1 (617) 253-1000",
        "email": "admissions@mit.edu"
    },
    {
        "name": "Harvard University",
        "latitude": 42.372867,
        "longitude": -71.118454,
        "country": "United States",
        "website": "https://www.harvard.edu",
        "number": "+1 (617) 495-1000",
        "email": "oue@fas.harvard.edu"
    },
    {
        "name": "Stanford University",
        "latitude": 37.428592,
        "longitude": -122.170887,
        "country": "United States",
        "website": "https://www.stanford.edu",
        "number": "650-723-2300",
        "email": ""
    },
    {
        "name": "California Institute of Technology (Caltech)",
        "latitude": 34.135620,
        "longitude": -118.127315,
        "country": "United States",
        "website": "https://www.caltech.edu",
        "number": "+1 (626) 395-6811",
        "email": ""
    },
    {
        "name": "University of Pennsylvania (UPenn)",
        "latitude": 39.953228,
        "longitude": -75.193971,
        "country": "United States",
        "website": "https://www.upenn.edu",
        "number": "+1 (215) 898-5000",
        "email": ""
    },
    {
        "name": "University of California, Berkeley (UCB)",
        "latitude": 37.871868,
        "longitude": -122.260376,
        "country": "United States",
        "website": "https://www.berkeley.edu",
        "number": "+1 (510) 642-5215",
        "email": "webadmin@berkeley.edu"
    },
    {
        "name": "Cornell University",
        "latitude": 42.452096,
        "longitude": -76.480320,
        "country": "United States",
        "website": "https://www.cornell.edu",
        "number": "+1 (607) 254-4636",
        "email": ""
    },
    {
        "name": "University of Chicago",
        "latitude": 41.792103,
        "longitude": -87.600220,
        "country": "United States",
        "website": "https://www.uchicago.edu",
        "number": "+1 (773) 702-1234",
        "email": "infocenter@uchicago.edu"
    },
    {
        "name": "Princeton University",
        "latitude": 40.336569,
        "longitude": -74.655463,
        "country": "United States",
        "website": "https://www.princeton.edu",
        "number": "+1 (609) 258-3361",
        "email": ""
    },
    {
        "name": "Yale University",
        "latitude": 41.311533,
        "longitude": -72.926084,
        "country": "United States",
        "website": "https://www.yale.edu",
        "number": "+1 (203) 432-4771",
        "email": ""
    },
    {
        "name": "Johns Hopkins University",
        "latitude": 39.330860,
        "longitude": -76.620560,
        "country": "United States",
        "website": "https://www.jhu.edu",
        "number": "+1 (410) 516-8000",
        "email": "gotojhu@jhu.edu"
    },
    {
        "name": "Columbia University",
        "latitude": 40.808040,
        "longitude": -73.961966,
        "country": "United States",
        "website": "https://www.columbia.edu",
        "number": "+1 (212) 854-1754",
        "email": "askcuit@columbia.edu"
    },
    {
        "name": "University of California, Los Angeles (UCLA)",
        "latitude": 34.070391,
        "longitude": -118.443481,
        "country": "United States",
        "website": "https://www.ucla.edu",
        "number": "+1 (310) 825-4321",
        "email": ""
    },
    {
        "name": "New York University (NYU)",
        "latitude": 40.729109,
        "longitude": -73.996506,
        "country": "United States",
        "website": "https://www.nyu.edu",
        "number": "+1 (212) 998-1212",
        "email": "gradadmissions@nyu.edu"
    },
    {
        "name": "University of Michigan-Ann Arbor",
        "latitude": 42.277709,
        "longitude": -83.737449,
        "country": "United States",
        "website": "https://umich.edu",
        "number": "+1 (734) 764-1817",
        "email": "info@umich.edu"
    },
    {
        "name": "Northwestern University",
        "latitude": 42.055088,
        "longitude": -87.678562,
        "country": "United States",
        "website": "https://www.northwestern.edu",
        "number": "+1 (847) 491-3741",
        "email": ""
    },
    {
        "name": "Carnegie Mellon University",
        "latitude": 40.443191,
        "longitude": -79.942510,
        "country": "United States",
        "website": "https://www.cmu.edu",
        "number": "+1 (412) 268-2000",
        "email": ""
    },
    {
        "name": "University of Connecticut",
        "latitude": 41.809044,
        "longitude": -72.251855,
        "country": "United States",
        "website": "https://uconn.edu",
        "number": "+1 (860) 486-4900",
        "email": "community@uconn.edu"
    },
    {
        "name": "Duke University",
        "latitude": 36.002250,
        "longitude": -78.938638,
        "country": "United States",
        "website": "https://duke.edu",
        "number": "+1 (919) 684-8111",
        "email": ""
    },
    {
        "name": "University of Texas at Austin",
        "latitude": 30.286102,
        "longitude": -97.739403,
        "country": "United States",
        "website": "https://www.utexas.edu",
        "number": "+1 (512) 471-3434",
        "email": ""
    },
    {
        "name": "University of Illinois - Champaign Campus",
        "latitude": 40.101025,
        "longitude": -88.226341,
        "country": "United States",
        "website": "https://illinois.edu",
        "number": "+1 (217) 333-3570",
        "email": "consult@illinois.edu"
    },
    {
        "name": "University of California, San Diego (UCSD)",
        "latitude": 32.878578,
        "longitude": -117.235451,
        "country": "United States",
        "website": "https://www.ucsd.edu",
        "number": "+1 (858) 534-2230",
        "email": ""
    },
    {
        "name": "University of Washington",
        "latitude": 47.654893,
        "longitude": -122.307787,
        "country": "United States",
        "website": "https://www.washington.edu",
        "number": "+1 (206) 543-2100",
        "email": ""
    },
    {
        "name": "Brown University",
        "latitude": 41.826859,
        "longitude": -71.402931,
        "country": "United States",
        "website": "https://www.brown.edu",
        "number": "+1 (401) 863-1000",
        "email": ""
    },
    {
        "name": "Pennsylvania State University",
        "latitude": 40.798214,
        "longitude": -77.859909,
        "country": "United States",
        "website": "https://www.psu.edu/",
        "number": "+1 814-865-4700",
        "email": "admissions@psu.edu"
    },
    {
        "name": "Purdue University",
        "latitude": 40.4237,
        "longitude": -86.9212,
        "country": "United States",
        "website": "https://www.purdue.edu/",
        "number": "+1 765-494-4600",
        "email": "admissions@purdue.edu"
    },
    {
        "name": "Boston University",
        "latitude": 42.3505,
        "longitude": -71.1054,
        "country": "United States",
        "website": "https://www.bu.edu/",
        "number": "+1 617-353-2000",
        "email": "admissions@bu.edu"
    },
    {
        "name": "Georgia Institute of Technology",
        "latitude": 33.775618,
        "longitude": -84.396285,
        "country": "United States",
        "website": "https://www.gatech.edu/",
        "number": "+1 404-894-2000",
        "email": "admission@gatech.edu"
    },
    {
        "name": "University of Wisconsin–Madison",
        "latitude": 43.0730556,
        "longitude": -89.4011111,
        "country": "United States",
        "website": "https://www.wisc.edu/",
        "number": "+1 608-263-2400",
        "email": "askbucky@uwmad.wisc.edu"
    },
    {
        "name": "University of Southern California",
        "latitude": 34.0205,
        "longitude": -118.2856,
        "country": "United States",
        "website": "https://www.usc.edu/",
        "number": "+1 213-740-2311",
        "email": "admissions@usc.edu"
    },
    {
        "name": "University of California, Davis",
        "latitude": 38.53379035,
        "longitude": -121.790798921465,
        "country": "United States",
        "website": "https://www.ucdavis.edu/",
        "number": "+1 530-752-1011",
        "email": "admissions@ucdavis.edu"
    },
    {
        "name": "Rice University",
        "latitude": 29.717154,
        "longitude": -95.404182,
        "country": "United States",
        "website": "https://www.rice.edu/",
        "number": "+1 713-348-0000",
        "email": "admission@rice.edu"
    },
    {
        "name": "Michigan State University",
        "latitude": 42.701848,
        "longitude": -84.482171,
        "country": "United States",
        "website": "https://www.msu.edu/",
        "number": "+1 517-355-1855",
        "email": "admis@msu.edu"
    },
    {
        "name": "Texas A&M University",
        "latitude": 30.615011,
        "longitude": -96.342476,
        "country": "United States",
        "website": "https://www.tamu.edu/",
        "number": "+1 979-845-3211",
        "email": "admissions@tamu.edu"
    },
    {
        "name": "University of North Carolina at Chapel Hill",
        "latitude": 35.90503535,
        "longitude": -79.0477532652511,
        "country": "United States",
        "website": "https://www.unc.edu/",
        "number": "+1 919-966-3621",
        "email": "unchelp@admissions.unc.edu"
    },
    {
        "name": "Washington University in St. Louis",
        "latitude": 38.648789,
        "longitude": -90.310796,
        "country": "United States",
        "website": "https://www.wustl.edu/",
        "number": "+1 314-935-5000",
        "email": "admissions@wustl.edu"
    },
    {
        "name": "University of California, Santa Barbara (UCSB)",
        "latitude": 34.413963,
        "longitude": -119.848946,
        "country": "United States",
        "website": "https://www.ucsb.edu/",
        "number": "+1 805-893-8000",
        "email": "admissions@ucsb.edu"
    },
    {
        "name": "Emory University",
        "latitude": 33.797028,
        "longitude": -84.323242,
        "country": "United States",
        "website": "https://www.emory.edu/",
        "number": "+1 404-727-6036",
        "email": "admission@emory.edu"
    },
    {
        "name": "Arizona State University",
        "latitude": 33.424564,
        "longitude": -111.928001,
        "country": "United States",
        "website": "https://www.asu.edu/",
        "number": "+1 855-278-5080",
        "email": "customerservice@asu.edu"
    },
    {
        "name": "University of Minnesota Twin Cities",
        "latitude": 44.975278,
        "longitude": -93.234167,
        "country": "United States",
        "website": "https://twin-cities.umn.edu/",
        "number": "+1 612-625-5000",
        "email": "admissions@umn.edu"
    },
    {
        "name": "The Ohio State University",
        "latitude": 40.0141905,
        "longitude": -83.0309143,
        "country": "United States",
        "website": "https://www.osu.edu/",
        "number": "+1 614-292-3980",
        "email": "askabuckeye@osu.edu"
    },
    {
        "name": "University of Florida",
        "latitude": 29.643946,
        "longitude": -82.355659,
        "country": "United States",
        "website": "https://www.ufl.edu/",
        "number": "+1 352-392-1365",
        "email": "admissions@ufl.edu"
    },
    {
        "name": "University of Maryland, College Park",
        "latitude": 38.990612,
        "longitude": -76.937331,
        "country": "United States",
        "website": "https://www.umd.edu/",
        "number": "+1 301-405-1000",
        "email": "ApplyMaryland@umd.edu"
    }
]
